[{"name":"Rocko's Aliw","map":"https://goo.gl/maps/iFMjUMM8K3SiUe1T7","location":"Meycauayan","address":"Requino St, Meycauayan, Central Luzon","coordinates":{"latitude":14.738073,"longitude":120.9601767}},{"name":"Rocko's Malanday","map":"https://goo.gl/maps/wUZTZxb3hZXnyu6t9","location":"Valenzuela","address":"309 Marcelo H. Del Pilar St, Manila, Metro Manila","coordinates":{"latitude":14.7216645,"longitude":120.9589073}},{"name":"Rocko's Fisher Mall Malabon","map":"https://goo.gl/maps/LGsVeq2depycZbXj6","location":"Malabon","address":"C-4 &, Dagat-Dagatan Ave, Longos, Malabon, Metro Manila","coordinates":{"latitude":14.656697,"longitude":120.9607219}},{"name":"Rocko's Gen T","map":"https://goo.gl/maps/biV2NDBZw1TfAwW6A","location":"Valenzuela","address":"Market, Valenzuela,Metro Manila","coordinates":{"latitude":14.6855125,"longitude":120.9915959}},{"name":"Rocko's BBB","map":"https://goo.gl/maps/ih2Nc6YM4FoHquxZ9","location":"Valenzuela","address":"Requino St, Meycauayan, Central Luzon","coordinates":{"latitude":14.6738991,"longitude":120.9827534}},{"name":"Rocko's IBP","map":"https://goo.gl/maps/ohyQgnBaMkfvbJX96","location":"Batasan","address":"Batasan Rd, Quezon City, Metro Manila","coordinates":{"latitude":14.6866939,"longitude":121.0913173}},{"name":"Rocko's Ever","map":"https://goo.gl/maps/rf3VdHqxG9muxqMBA","location":"Batasan","address":"11th Cor, St A. Bonifacio Ave, Quezon City, 1115 Metro Manila","coordinates":{"latitude":14.6522195,"longitude":120.9947146}},{"name":"Rocko's Navotas","map":"https://goo.gl/maps/aucvQXFBjeAKcGi86","location":"Navotas","address":"71 F. Pascual St, Manila, Metro Manila","coordinates":{"latitude":14.6657024,"longitude":120.9413065}},{"name":"Rocko's Lias","map":"https://goo.gl/maps/PmE4YjXWDdKKhkre9","location":"Marilao","address":"Mario Santiago Rd, Marilao","coordinates":{"latitude":14.7624924,"longitude":120.9665937}},{"name":"Rocko's Roxas","map":"https://goo.gl/maps/x42qDqhZR5VWJqGz8","location":"Tondo","address":"75 Roxas St, Tondo, Manila, Metro Manila","coordinates":{"latitude":14.6208406,"longitude":120.9613895}},{"name":"Rocko's Sta. Quiteria","map":"https://goo.gl/maps/U55vUa2zUwVoSVMh6","location":"North Caloocan","address":"230 Santa Quiteria Rd, Caloocan, Metro Manila","coordinates":{"latitude":14.6790319,"longitude":121.0102861}},{"name":"Rocko's Comembo Makati","map":"https://goo.gl/maps/RVgxZamHmRwzmd9o9","location":"Makati","address":"31 Bayabas, Makati, Metro Manila","coordinates":{"latitude":14.548203,"longitude":121.0635105}},{"name":"Rocko's Anonas","map":"https://goo.gl/maps/bABuNgVCj7dYbWU58","location":"Quezon City","address":"27 Molave, Project 3, Quezon City","coordinates":{"latitude":14.6289745,"longitude":121.0644893}},{"name":"Rocko's Waltermart Malolos","map":"https://goo.gl/maps/P9AJ7RXVsmB5DeTN7","location":"Malolos","address":"WalterMart Shopping Center Malolos KM 45, MacArthur Hwy, Malolos, Bulacan","coordinates":{"latitude":14.8720646,"longitude":120.7991122}},{"name":"Rocko's Bagumbayan","map":"https://goo.gl/maps/yr9aj8SkM7nkXPTP8","location":"Taguig","address":"441 Dir. A. Bunye, Maynila, Kalakhang Maynila","coordinates":{"latitude":14.4679441,"longitude":121.0564482}}]